City,Country,Lat,Lng,Max Temp,Humidity,Cloudiness,Wind Speed,Current Description
Tateyama,JP,34.9833,139.8667,67.1,76,100,8.1,overcast clouds
Albany,US,42.6001,-73.9662,52.66,73,7,10.07,clear sky
Vaini,TO,-21.2,-175.2,77.16,83,75,11.5,broken clouds
Avarua,CK,-21.2078,-159.775,78.85,73,40,16.11,scattered clouds
Mataura,NZ,-46.1927,168.8643,62.47,39,48,5.75,scattered clouds
Mahebourg,MU,-20.4081,57.7,70.09,73,40,11.5,scattered clouds
Port-Cartier,CA,50.0334,-66.8654,43.02,96,100,18.63,overcast clouds
Butaritari,KI,3.0707,172.7902,82.56,74,90,11.21,overcast clouds
Puerto Ayora,EC,-0.7393,-90.3518,66.54,92,100,7.0,overcast clouds
Kalmunai,LK,7.4167,81.8167,78.42,81,100,5.93,overcast clouds
Atuona,PF,-9.8,-139.0333,76.15,80,27,18.66,light rain
Kapaa,US,22.0752,-159.319,82.72,70,40,13.8,scattered clouds
Castro,BR,-24.7911,-50.0119,50.92,88,81,4.25,broken clouds
Omboue,GA,-1.5746,9.2618,73.35,91,67,2.64,broken clouds
Iqaluit,CA,63.7506,-68.5145,26.33,68,100,9.22,overcast clouds
Dikson,RU,73.5069,80.5464,33.06,99,100,11.59,overcast clouds
Morros,BR,-9.4467,-46.3003,85.59,25,42,2.39,scattered clouds
Ilulissat,GL,69.2167,-51.1,24.82,86,100,0.0,overcast clouds
Hilo,US,19.7297,-155.09,85.73,80,0,17.27,clear sky
Yellowknife,CA,62.456,-114.3525,48.72,87,20,4.61,few clouds
Clyde River,CA,70.4692,-68.5914,17.83,86,75,13.8,broken clouds
Jamestown,US,42.097,-79.2353,49.59,62,100,6.91,overcast clouds
Saint-Augustin,CA,51.226,-58.6502,41.77,87,100,18.79,overcast clouds
Beloha,MG,-25.1667,45.05,68.14,83,0,5.7,clear sky
Burns Lake,CA,54.2331,-125.7533,69.22,57,0,2.73,clear sky
East London,ZA,-33.0153,27.9116,62.31,84,97,16.04,overcast clouds
Hohhot,CN,40.8106,111.6522,43.09,87,20,4.47,few clouds
Khatanga,RU,71.9667,102.5,25.99,96,100,13.98,light snow
Hobart,AU,-42.8794,147.3294,56.05,56,40,11.5,scattered clouds
Caravelas,BR,-17.7125,-39.2481,75.83,87,100,13.0,overcast clouds
Busselton,AU,-33.65,115.3333,56.98,64,18,5.37,few clouds
Kutum,SD,14.2,24.6667,77.04,28,20,14.72,few clouds
Ushuaia,AR,-54.8,-68.3,35.26,93,100,17.27,light rain
Santa Rosa,PH,14.3122,121.1114,84.09,71,98,11.14,overcast clouds
Punta Arenas,CL,-53.15,-70.9167,41.11,70,40,16.11,scattered clouds
Clemencia,CO,10.5665,-75.325,79.97,90,100,1.9,overcast clouds
Saskylakh,RU,71.9167,114.0833,26.08,95,100,13.18,light snow
Nantucket,US,41.2835,-70.0995,62.71,93,0,10.36,clear sky
Bluff,NZ,-46.6,168.3333,62.8,54,42,2.86,scattered clouds
Saint-Philippe,RE,-21.3585,55.7679,65.79,77,43,10.94,scattered clouds
Carnot,CF,4.9409,15.8665,67.87,98,97,0.87,light rain
Alofi,NU,-19.0595,-169.9187,80.49,69,100,14.97,overcast clouds
Avera,US,33.194,-82.5271,69.31,47,0,5.28,clear sky
Ketchikan,US,55.3422,-131.6461,57.67,88,20,0.0,few clouds
Kodiak,US,57.79,-152.4072,53.11,87,100,0.0,light rain
Rikitea,PF,-23.1203,-134.9692,70.88,72,14,24.38,few clouds
Udachnyy,RU,66.4167,112.4,20.68,91,100,7.9,overcast clouds
Indianola,US,41.3581,-93.5574,49.86,67,0,7.07,clear sky
Westport,US,41.1415,-73.3579,67.78,56,100,11.5,overcast clouds
Georgetown,MY,5.4112,100.3354,80.53,88,20,5.01,few clouds
Nago,JP,26.5881,127.9761,81.03,69,100,11.97,overcast clouds
Ostrowiec Swietokrzyski,PL,50.9294,21.3853,49.68,90,7,5.95,clear sky
Bambous Virieux,MU,-20.3428,57.7575,70.05,73,40,11.5,scattered clouds
Ribeira Grande,PT,38.5167,-28.7,71.02,89,11,5.64,few clouds
Pilar,BR,-9.5972,-35.9567,73.33,94,0,4.68,clear sky
Chuy,UY,-33.6971,-53.4616,53.06,77,1,7.02,clear sky
Saint George,US,37.1041,-113.5841,86.59,24,0,4.61,clear sky
Hermanus,ZA,-34.4187,19.2345,54.81,83,100,9.69,overcast clouds
Kumluca,TR,36.3703,30.2869,68.0,54,7,5.03,clear sky
Itarema,BR,-2.9248,-39.9167,77.92,82,0,11.34,clear sky
Melbu,NO,68.5044,14.8297,46.22,81,100,6.91,overcast clouds
Bredasdorp,ZA,-34.5322,20.0403,52.11,92,100,3.56,overcast clouds
Upernavik,GL,72.7868,-56.1549,15.76,80,98,6.04,overcast clouds
Hasaki,JP,35.7333,140.8333,70.21,69,100,9.37,overcast clouds
Llanes,ES,43.4198,-4.7549,63.82,88,100,7.87,overcast clouds
New Norfolk,AU,-42.7826,147.0587,56.71,63,82,4.0,broken clouds
Grand-Santi,GF,4.25,-54.3833,78.6,64,8,4.61,clear sky
Mar Del Plata,AR,-38.0023,-57.5575,59.02,67,20,4.61,light rain
Azuaga,ES,38.2667,-5.6833,63.97,49,3,4.72,clear sky
Port Hedland,AU,-20.3167,118.5667,84.25,21,57,24.16,broken clouds
Kaitangata,NZ,-46.2817,169.8464,56.26,48,38,2.15,scattered clouds
Ust-Maya,RU,60.4167,134.5333,24.06,68,100,6.4,overcast clouds
Kalaleh,IR,37.3807,55.4916,64.0,72,40,0.0,scattered clouds
Port Alfred,ZA,-33.5906,26.891,60.19,83,100,1.99,overcast clouds
Vila Franca Do Campo,PT,37.7167,-25.4333,73.2,85,94,5.86,overcast clouds
Maragogi,BR,-9.0122,-35.2225,75.52,86,0,5.41,clear sky
Touros,BR,-5.1989,-35.4608,78.04,81,1,15.5,clear sky
Kasongo-Lunda,CD,-6.4667,16.8167,68.61,97,40,1.5,scattered clouds
Chernogolovka,RU,56.0,38.3667,44.58,87,100,5.91,overcast clouds
San Cristobal,VE,7.7669,-72.225,75.38,96,100,2.77,overcast clouds
Qaanaaq,GL,77.484,-69.3632,6.46,71,6,8.3,clear sky
Riyadh,SA,24.6877,46.7219,75.34,15,0,2.06,clear sky
Okhotsk,RU,59.3833,143.3,32.43,48,88,9.28,overcast clouds
Tambovka,RU,50.0969,128.0489,40.95,45,100,9.8,overcast clouds
Two Rivers,US,44.1539,-87.5693,43.29,81,0,0.0,clear sky
Banda Aceh,ID,5.5577,95.3222,77.59,76,100,5.48,light rain
Chokurdakh,RU,70.6333,147.9167,23.74,89,100,23.69,light snow
Qujing,CN,25.4833,103.7833,60.17,90,100,9.69,overcast clouds
Wattegama,LK,6.7989,81.4808,75.61,80,100,1.61,overcast clouds
Sao Filipe,CV,14.8961,-24.4956,78.67,84,46,5.28,scattered clouds
Barrow,US,71.2906,-156.7887,35.62,80,100,26.46,light rain
Cape Town,ZA,-33.9258,18.4232,58.12,82,0,4.61,clear sky
Kavieng,PG,-2.5744,150.7967,84.99,63,100,14.34,overcast clouds
Eydhafushi,MV,5.1033,73.0708,81.91,69,90,15.79,overcast clouds
Bodden Town,KY,19.2833,-81.25,84.2,76,0,14.97,clear sky
Tuktoyaktuk,CA,69.4541,-133.0374,50.0,57,75,18.41,broken clouds
Arroyo,ES,41.6096,-4.7969,59.04,77,100,10.36,overcast clouds
Ambilobe,MG,-13.2,49.05,64.44,73,32,5.06,scattered clouds
Sao Jose Da Coroa Grande,BR,-8.8978,-35.1478,75.72,85,0,5.48,clear sky
Loukisia,GR,38.4833,23.45,63.55,62,0,12.46,clear sky
Yerbogachen,RU,61.2767,108.0108,31.89,81,100,10.96,overcast clouds
Poum,NC,-20.2333,164.0167,77.79,74,10,10.6,clear sky
Saint-Francois,FR,46.4154,3.9054,55.67,100,100,0.0,overcast clouds
Talaya,RU,61.3833,152.75,16.14,82,100,3.69,overcast clouds
Jalu,LY,29.0331,21.5482,67.15,61,3,6.93,clear sky
Yerofey Pavlovich,RU,53.9667,121.9667,34.12,45,22,1.9,few clouds
Hofn,IS,64.2539,-15.2082,40.59,65,100,8.28,overcast clouds
Rongcheng,CN,30.634,117.8517,57.76,97,100,3.0,light rain
Tasiilaq,GL,65.6145,-37.6368,35.76,97,100,4.12,light rain
Arraial Do Cabo,BR,-22.9661,-42.0278,72.81,86,31,4.61,scattered clouds
Butia,BR,-30.1197,-51.9622,55.76,89,0,3.4,clear sky
Zaranj,AF,30.9667,61.8833,66.16,16,0,12.75,clear sky
Liptovsky Mikulas,SK,49.0806,19.6222,53.76,93,22,4.92,few clouds
Amahai,ID,-3.3333,128.9167,84.56,68,27,1.32,scattered clouds
Bubaque,GW,11.2833,-15.8333,81.91,75,100,8.48,overcast clouds
Mezen,RU,65.8522,44.24,40.08,94,3,8.84,clear sky
Dabakala,CI,8.3667,-4.4333,71.28,98,93,3.74,overcast clouds
Victoria,HK,22.2855,114.1577,83.25,76,71,11.99,broken clouds
Thompson,CA,55.7435,-97.8558,46.56,57,75,11.5,broken clouds
Hithadhoo,MV,-0.6,73.0833,80.56,78,99,14.09,overcast clouds
Laguna,US,38.421,-121.4238,96.78,21,0,9.22,clear sky
Turukhansk,RU,65.8167,87.9833,33.12,99,100,14.92,snow
Saint-Georges,GD,12.0564,-61.7485,82.08,83,40,20.71,scattered clouds
Tiksi,RU,71.6872,128.8694,24.37,89,100,18.43,overcast clouds
Bethel,US,41.3712,-73.414,66.51,72,75,5.75,broken clouds
Svetlogorsk,BY,52.6333,29.7333,44.06,91,0,6.4,clear sky
Carnarvon,AU,-24.8667,113.6333,72.36,29,0,11.27,clear sky
Hyeres,FR,43.1167,6.1167,63.68,82,0,5.75,clear sky
Flinders,AU,-34.5833,150.8552,74.17,78,100,4.0,light rain
Kavaratti,IN,10.5669,72.642,81.19,73,42,13.98,scattered clouds
Souillac,MU,-20.5167,57.5167,70.18,73,40,11.5,scattered clouds
Auki,SB,-8.7676,160.7034,84.97,64,62,1.57,broken clouds
Tuatapere,NZ,-46.1333,167.6833,58.53,47,7,6.24,clear sky
Progreso,MX,21.2833,-89.6667,79.34,77,71,10.71,broken clouds
Kankon,IN,15.0167,74.0167,75.76,87,49,4.09,scattered clouds
Fort Nelson,CA,58.8053,-122.7002,65.79,39,75,4.61,broken clouds
Vila Do Maio,CV,15.1333,-23.2167,81.39,85,61,8.05,broken clouds
Luderitz,NA,-26.6481,15.1594,59.45,72,3,16.82,clear sky
Kahului,US,20.8947,-156.47,87.82,70,40,18.41,scattered clouds
Matadi,CD,-5.8167,13.45,74.95,88,100,4.83,overcast clouds
Lavrentiya,RU,65.5833,-171.0,36.36,62,21,7.94,few clouds
Tomatlan,MX,19.9333,-105.25,76.53,88,0,1.77,clear sky
Waw,SS,7.7029,27.9953,68.49,96,99,3.87,light rain
Hambantota,LK,6.1241,81.1185,75.54,94,20,3.44,few clouds
Aklavik,CA,68.2191,-135.0107,46.17,65,89,11.36,overcast clouds
College,US,64.8569,-147.8028,44.58,80,100,4.61,overcast clouds
Peleduy,RU,59.6289,112.7406,31.59,89,100,7.78,overcast clouds
Abu Road,IN,24.4833,72.7833,74.52,86,100,3.74,overcast clouds
Pochutla,MX,15.7432,-96.4661,84.02,88,24,3.94,few clouds
Iskateley,RU,67.6803,53.1512,43.92,88,100,17.34,light rain
Alot,IN,23.7667,75.55,72.01,94,100,8.66,moderate rain
Vuktyl,RU,63.8567,57.3094,43.05,90,100,8.88,overcast clouds
North Bend,US,43.4065,-124.2243,59.92,97,100,12.66,mist
Port Hardy,CA,50.6996,-127.4199,53.78,100,75,5.75,fog
Nikolskoye,RU,59.7035,30.7861,51.69,78,48,11.86,scattered clouds
Sun City West,US,33.662,-112.3413,90.41,29,0,6.91,clear sky
Egvekinot,RU,66.3167,-179.1667,23.47,80,98,2.66,overcast clouds
Solhan,TR,38.9634,41.0293,62.37,38,35,6.67,scattered clouds
Grants,US,35.1473,-107.8514,57.43,62,0,5.75,clear sky
Tanete,ID,-3.9443,119.7848,81.27,77,96,5.55,light rain
Mikhaylovka,RU,50.06,43.2379,47.7,87,0,6.4,clear sky
Sundby,DK,54.864,11.793,57.02,78,100,19.1,overcast clouds
Lichinga,MZ,-13.3128,35.2406,64.49,48,0,11.99,clear sky
Guerrero Negro,MX,27.9769,-114.0611,72.64,75,2,13.11,clear sky
Cherskiy,RU,68.75,161.3,21.54,79,100,23.11,overcast clouds
Ranong,TH,9.9658,98.6348,75.13,86,100,2.44,overcast clouds
Kargil,IN,34.5667,76.1,39.18,67,1,4.14,clear sky
Naze,JP,28.3667,129.4833,74.32,63,93,11.03,overcast clouds
Asau,RO,46.4333,26.4,49.12,89,100,0.94,overcast clouds
Beringovskiy,RU,63.05,179.3167,31.73,86,93,4.05,light snow
Vao,NC,-22.6667,167.4833,72.46,80,12,24.76,few clouds
Adrar,MR,20.5022,-10.0711,89.2,20,21,7.47,few clouds
Graham,US,47.0529,-122.2943,77.4,59,0,5.75,clear sky
Norfolk,US,42.1668,-71.2495,67.48,77,0,5.75,clear sky
Severo-Kurilsk,RU,50.6789,156.125,46.15,57,66,5.21,broken clouds
Meulaboh,ID,4.1363,96.1285,74.68,82,100,3.56,overcast clouds
Hamadan,IR,34.7992,48.5146,47.28,31,0,2.3,clear sky
Pisco,PE,-13.7,-76.2167,60.85,82,0,8.05,clear sky
Sao Joao Da Barra,BR,-21.6403,-41.0511,77.09,89,90,8.21,overcast clouds
La Cruz,MX,23.9167,-106.9,80.2,71,5,5.44,clear sky
Mecca,SA,21.4267,39.8261,80.26,64,13,1.48,few clouds
Waipawa,NZ,-41.4122,175.5153,57.11,48,0,5.97,clear sky
Calabozo,VE,8.9242,-67.4293,75.07,93,99,4.52,overcast clouds
Klaksvik,FO,62.2266,-6.589,41.92,74,97,21.18,overcast clouds
Port Elizabeth,ZA,-33.918,25.5701,62.89,87,0,9.22,clear sky
Lebanon,US,36.2081,-86.2911,66.25,68,0,6.91,clear sky
At-Bashi,KG,41.1702,75.8106,39.85,70,100,1.66,overcast clouds
Talara,PE,-4.5772,-81.2719,63.64,90,62,17.05,broken clouds
Ponta Do Sol,PT,32.6667,-17.1,72.23,79,17,7.31,few clouds
Coihueco,CL,-36.6167,-71.8333,50.74,100,20,5.75,few clouds
Havre-Saint-Pierre,CA,50.2334,-63.5986,41.36,100,100,18.41,mist
Ancud,CL,-41.8697,-73.8203,43.63,71,6,15.52,clear sky
Ixtapa,MX,20.7,-105.2,77.18,94,25,1.39,scattered clouds
Pevek,RU,69.7008,170.3133,25.63,64,100,25.75,overcast clouds
San Patricio,US,28.017,-97.5169,80.46,60,100,5.1,overcast clouds
Oranjemund,NA,-28.55,16.4333,56.89,90,5,12.62,clear sky
Lermontovka,RU,47.1453,134.3383,46.51,51,11,4.79,few clouds
Dwarka,IN,22.2394,68.9678,81.86,81,27,10.25,scattered clouds
Khorixas,NA,-20.3667,14.9667,72.18,24,87,2.53,overcast clouds
Moron,AR,-34.6534,-58.6198,72.01,47,23,8.86,few clouds
Broome,US,42.2506,-75.833,49.69,77,100,12.66,overcast clouds
Provideniya,RU,64.3833,-173.3,37.24,55,85,9.55,overcast clouds
Kantabanji,IN,20.4833,82.9167,73.47,93,69,2.35,broken clouds
Tarko-Sale,RU,64.9225,77.785,39.78,96,100,8.77,light rain
Maniitsoq,GL,65.4167,-52.9,32.79,80,100,11.34,overcast clouds
Thunder Bay,CA,48.4001,-89.3168,37.38,65,20,10.36,few clouds
Moranbah,AU,-22.0016,148.0466,84.42,40,0,13.82,clear sky
Correia Pinto,BR,-27.5847,-50.3611,47.91,99,12,2.55,few clouds
Andenes,NO,69.3143,16.1194,44.92,81,20,11.5,few clouds
Deputatskiy,RU,69.3,139.9,16.23,88,100,31.34,light snow
Tumut,AU,-35.3,148.2167,62.13,63,99,7.49,overcast clouds
Masterton,NZ,-40.9597,175.6575,58.89,40,0,2.42,clear sky
Foumban,CM,5.7291,10.9001,62.67,94,100,2.51,overcast clouds
Kawalu,ID,-7.3817,108.2082,71.37,99,100,2.3,light rain
Kununurra,AU,-15.7667,128.7333,89.58,55,27,5.75,scattered clouds
Selfoss,IS,63.9331,-20.9971,37.04,81,100,5.84,overcast clouds
Sitka,US,57.0531,-135.33,57.09,82,75,3.44,broken clouds
Tautira,PF,-17.7333,-149.15,76.3,82,39,21.39,moderate rain
Kolno,PL,53.4115,21.9291,52.0,75,100,9.19,overcast clouds
Te Anau,NZ,-45.4167,167.7167,52.45,61,32,8.37,scattered clouds
Buin,CL,-33.7333,-70.75,63.73,94,66,3.91,broken clouds
Fortuna,US,40.5982,-124.1573,56.98,63,21,5.14,few clouds
Sabha,LY,27.0377,14.4283,70.38,44,0,11.61,clear sky
Banda,IN,25.4833,80.3333,77.27,86,100,5.59,overcast clouds
Charters Towers,AU,-20.1,146.2667,83.98,42,2,12.03,clear sky
College Station,US,30.628,-96.3344,81.0,39,0,3.44,clear sky
Formosa,AR,-26.1775,-58.1781,66.18,63,0,5.75,clear sky
Kloulklubed,PW,7.0419,134.2556,84.0,67,100,3.94,overcast clouds
Sakakah,SA,29.9697,40.2064,76.57,19,42,1.92,scattered clouds
Suntar,RU,62.1444,117.6319,30.04,80,100,8.28,overcast clouds
Lamu,KE,-2.2717,40.902,75.83,82,100,15.14,overcast clouds
Dire,ML,12.2833,-10.9667,73.83,93,100,1.36,overcast clouds
Naron,ES,43.5167,-8.1528,62.04,86,88,13.27,overcast clouds
Berlevag,NO,70.8578,29.0864,42.75,70,26,20.71,scattered clouds
Riverton,US,40.5219,-111.9391,75.06,33,0,5.75,clear sky
Praia,CV,14.9215,-23.5087,81.14,83,75,11.5,broken clouds
Sitrah,BH,26.1547,50.6206,84.2,84,0,2.3,clear sky
Bilma,NE,18.6853,12.9164,82.87,21,100,8.68,overcast clouds
Olyka,UA,50.7186,25.8125,50.16,76,3,8.19,clear sky
Bogorodskoye,RU,56.55,37.8833,44.87,87,100,7.52,overcast clouds
Usinsk,RU,65.9939,57.5281,42.64,91,100,12.3,light rain
Matara,LK,5.9485,80.5353,76.75,86,100,9.13,overcast clouds
Norman Wells,CA,65.282,-126.8329,57.24,47,75,6.91,broken clouds
Korla,CN,41.7597,86.1469,56.14,34,0,4.29,clear sky
Kropotkin,RU,45.4375,40.5756,56.68,74,5,13.47,clear sky
Buchanan,LR,5.8808,-10.0467,76.35,90,99,4.59,light rain
Husavik,IS,66.0449,-17.3389,35.26,81,100,2.33,overcast clouds
Majene,ID,-3.5403,118.9707,82.92,78,100,5.12,overcast clouds
Barcelona,ES,41.3888,2.159,67.78,85,75,4.61,broken clouds
Veselynove,UA,47.3567,31.2349,51.15,69,62,8.3,broken clouds
Geraldton,AU,-28.7667,114.6,63.01,55,0,5.75,clear sky
Broken Hill,AU,-31.95,141.4333,58.01,52,100,12.39,overcast clouds
Kabanjahe,ID,3.1001,98.4908,62.87,87,100,2.1,overcast clouds
Burnie,AU,-41.0667,145.9167,53.94,57,62,13.76,broken clouds
Sur,OM,22.5667,59.5289,77.94,65,0,6.55,clear sky
Sehithwa,BW,-20.4667,22.7167,71.02,20,0,6.91,clear sky
Faanui,PF,-16.4833,-151.75,77.99,76,23,20.22,light rain
Bathsheba,BB,13.2167,-59.5167,83.01,78,40,14.97,scattered clouds
Sembakung,ID,3.8167,117.25,84.07,73,44,1.77,scattered clouds
Borogontsy,RU,62.6683,131.1683,24.33,55,93,7.72,overcast clouds
Khasan,RU,42.4308,130.6434,50.4,45,100,1.32,overcast clouds
Meiktila,MM,20.8667,95.8667,75.83,87,26,8.66,scattered clouds
Aitape,PG,-3.1374,142.3475,86.43,66,88,6.02,overcast clouds
Gravdal,NO,68.1214,13.5031,46.26,84,100,8.1,overcast clouds
Launceston,AU,-41.45,147.1667,58.6,53,75,11.5,broken clouds
Xinan,CN,26.72,119.8556,70.12,74,100,6.13,overcast clouds
Talnakh,RU,69.4865,88.3972,33.21,95,100,11.27,light snow
Cordoba,AR,-31.4135,-64.1811,76.24,23,0,11.5,clear sky
Ati,TD,13.2154,18.3353,83.32,57,94,7.16,overcast clouds
Villa Carlos Paz,AR,-31.4241,-64.4978,72.39,26,0,1.99,clear sky
Vieste,IT,41.8825,16.175,67.42,73,100,3.53,overcast clouds
Komsomolskiy,UZ,40.4272,71.7189,50.72,53,0,6.91,clear sky
Longyearbyen,SJ,78.2186,15.6401,39.04,75,75,11.5,broken clouds
Pestravka,RU,52.405,49.9583,45.16,91,12,8.59,few clouds
Kenai,US,60.5544,-151.2583,53.02,93,100,8.03,light rain
Dingle,PH,10.9995,122.6711,83.75,78,76,6.85,broken clouds
Muyezerskiy,RU,63.9333,31.65,50.72,88,100,16.82,overcast clouds
Moose Factory,CA,51.2585,-80.6094,35.6,69,0,10.36,clear sky
Olaine,LV,56.7853,23.9381,46.92,87,0,9.22,clear sky
Florida,US,28.7505,-82.5001,73.74,84,0,0.0,clear sky
Sao Lourenco Do Oeste,BR,-26.3592,-52.8511,48.72,90,0,1.39,clear sky
Sibolga,ID,1.7427,98.7792,77.68,77,100,2.95,overcast clouds
Novoagansk,RU,61.9449,76.6625,42.66,89,100,7.25,overcast clouds
Sioux Lookout,CA,50.1001,-91.917,42.87,49,75,10.36,broken clouds
Punta De Bombon,PE,-17.1717,-71.7931,60.44,77,9,1.95,clear sky
Northam,GB,51.0333,-4.2167,54.61,78,3,14.2,clear sky
Awjilah,LY,29.1081,21.2869,66.78,65,4,7.07,clear sky
Dieppe,FR,49.75,1.1667,53.33,92,100,1.01,overcast clouds
Akonolinga,CM,3.7667,12.25,66.45,99,100,3.87,moderate rain
Chara,RU,56.9064,118.2631,26.22,67,87,2.46,overcast clouds
Esperance,AU,-33.8667,121.9,59.32,56,100,13.35,overcast clouds
Necochea,AR,-38.5473,-58.7368,54.97,87,100,11.05,moderate rain
Tornio,FI,65.8481,24.1466,48.22,87,100,13.89,overcast clouds
Aswan,EG,24.0934,32.907,77.59,31,5,16.22,clear sky
Katsuura,JP,35.1333,140.3,66.88,74,100,10.02,overcast clouds
Rameswaram,IN,9.2833,79.3,81.84,72,99,2.44,overcast clouds
Clearwater,US,27.9659,-82.8001,76.98,74,0,8.99,clear sky
Anshun,CN,26.25,105.9333,52.81,94,100,4.41,overcast clouds
Harper,LR,4.375,-7.7169,76.03,91,62,8.39,broken clouds
Lebu,CL,-37.6167,-73.65,47.14,69,6,16.26,clear sky
Canico,PT,32.6333,-16.85,72.23,64,40,20.71,scattered clouds
Dunedin,NZ,-45.8742,170.5036,56.77,54,73,4.34,broken clouds
Maues,BR,-3.3836,-57.7186,81.46,48,33,3.29,scattered clouds
Alice Springs,AU,-23.7,133.8833,67.55,30,40,17.27,scattered clouds
Torbay,CA,47.6666,-52.7314,51.58,94,100,14.97,overcast clouds
Umm Lajj,SA,25.0213,37.2685,83.8,62,0,8.66,clear sky
Port-Gentil,GA,-0.7193,8.7815,76.86,80,100,2.8,overcast clouds
Kruisfontein,ZA,-34.0033,24.7314,54.88,87,100,5.23,overcast clouds
Pangnirtung,CA,66.1451,-65.7125,24.08,86,100,1.57,overcast clouds
Mount Gambier,AU,-37.8333,140.7667,55.62,50,20,9.75,few clouds
Hrebinka,UA,50.1171,32.4361,46.24,85,0,4.36,clear sky
Takaungu,KE,-3.6837,39.8566,73.24,87,77,12.21,broken clouds
Moerai,PF,-22.4333,-151.3333,73.8,76,1,11.79,clear sky
Eyrarbakki,IS,63.863,-21.1481,41.05,80,100,8.57,overcast clouds
Bengkulu,ID,-3.8004,102.2655,76.82,76,100,2.55,moderate rain
Hangu,CN,39.2489,117.7892,55.44,60,11,15.35,few clouds
Emmett,US,43.8735,-116.4993,78.17,41,61,4.21,broken clouds
Ust-Kuyga,RU,70.0167,135.6,24.66,86,100,18.88,light snow
Seoul,KR,37.5683,126.9778,60.24,72,40,5.75,scattered clouds
Chicama,PE,-7.8447,-79.1469,57.74,83,90,7.38,overcast clouds
Honningsvag,NO,70.9821,25.9704,44.35,70,75,14.97,broken clouds
Lere,NG,10.387,8.5726,68.07,92,73,2.53,broken clouds
Noumea,NC,-22.2763,166.4572,84.18,99,65,18.16,broken clouds
Luanda,AO,-8.8368,13.2343,75.2,83,100,4.61,overcast clouds
Nanortalik,GL,60.1432,-45.2371,34.16,93,100,23.49,snow
Maur,IN,30.0833,75.25,73.36,85,100,7.0,overcast clouds
Jawhar,SO,2.7809,45.5005,74.52,85,88,11.79,overcast clouds
Pecos,US,31.4229,-103.4932,77.31,36,40,10.36,scattered clouds
Iranshahr,IR,27.2025,60.6848,66.54,5,0,0.0,clear sky
Sorgun,TR,39.8101,35.186,50.72,93,100,4.68,light rain
Mhlume,SZ,-26.0333,31.85,63.9,75,2,6.89,clear sky
Marzuq,YE,14.4,46.4667,71.64,50,50,4.12,scattered clouds
Araouane,ML,18.9048,-3.5265,92.93,22,25,12.8,scattered clouds
Soubre,CI,5.7856,-6.6083,71.01,100,55,1.63,broken clouds
Yeppoon,AU,-23.1333,150.7333,80.38,66,0,10.18,clear sky
Sambava,MG,-14.2667,50.1667,67.01,85,15,11.5,few clouds
Cooma,AU,-36.2333,149.1333,63.54,42,12,10.51,few clouds
Maldonado,UY,-34.6667,-54.9167,62.22,52,6,9.1,clear sky
Havelock,US,34.8791,-76.9013,72.95,87,73,6.44,broken clouds
Brigantine,US,39.4101,-74.3646,66.0,82,94,4.0,overcast clouds
Saint Anthony,US,45.0205,-93.218,44.2,66,0,5.99,clear sky
Brae,GB,60.3964,-1.353,48.49,74,100,17.72,overcast clouds
Pringsewu,ID,-5.3582,104.9744,76.39,84,100,3.89,overcast clouds
Pontianak,ID,-0.0333,109.3333,75.18,94,40,3.44,heavy intensity rain
Cam Ranh,VN,11.9214,109.1591,76.96,100,75,5.75,thunderstorm with rain
Ivdel,RU,60.6911,60.4206,41.34,93,100,4.52,overcast clouds
Henties Bay,NA,-22.116,14.2845,56.39,86,88,5.21,overcast clouds
Siniscola,IT,40.5719,9.6922,54.95,70,49,3.53,scattered clouds
Contai,IN,21.7786,87.7536,80.13,84,10,1.23,clear sky
Port Said,EG,31.2565,32.2841,72.23,71,0,11.12,clear sky
Uyuni,BO,-20.4597,-66.825,41.95,11,0,9.1,clear sky
Palmer,US,42.1584,-72.3287,60.67,64,95,1.99,overcast clouds
Yangambi,CD,0.8102,24.4336,65.48,99,97,1.05,overcast clouds
Codrington,AU,-38.2667,141.9667,54.52,59,23,14.83,few clouds
Bella Union,UY,-30.2752,-57.6007,60.64,58,0,9.55,clear sky
Edd,ER,13.9297,41.6925,88.12,57,67,1.39,broken clouds
Saint-Denis,FR,48.9167,2.3333,54.14,81,0,6.91,clear sky
Bay Roberts,CA,47.5999,-53.2648,52.34,89,88,8.01,overcast clouds
Tagusao,PH,9.1924,117.8141,84.83,68,96,3.53,overcast clouds
Bandipur,NP,27.9333,84.4167,64.08,83,100,1.59,overcast clouds
Comodoro Rivadavia,AR,-45.8667,-67.5,44.46,76,100,17.27,light rain
Aurora,US,39.7294,-104.8319,49.59,74,100,3.44,overcast clouds
Saint Albans,GB,51.75,-0.3333,52.5,94,0,13.8,clear sky
Sanary-Sur-Mer,FR,43.1178,5.8001,69.89,73,18,4.27,few clouds
Giresun,TR,40.5,38.5,44.13,57,100,2.44,overcast clouds
Vardo,NO,70.3705,31.1107,40.98,87,23,12.66,few clouds
Talakan,RU,50.3167,130.3667,39.9,55,100,2.04,overcast clouds
Narasannapeta,IN,18.4167,84.05,77.7,89,94,5.86,overcast clouds
Zhigansk,RU,66.7697,123.3711,22.51,89,100,12.91,overcast clouds
Leno,IT,45.3725,10.2166,64.87,84,27,4.61,scattered clouds
Ngama,TD,11.7833,17.1667,77.9,74,62,6.31,broken clouds
Ornskoldsvik,SE,63.2909,18.7153,47.35,100,40,3.44,scattered clouds
Svarstad,NO,59.399,9.9698,49.37,53,0,1.01,clear sky
Puerto Del Rosario,ES,28.5004,-13.8627,73.15,83,100,9.22,overcast clouds
Trapani,IT,37.8333,12.6667,69.24,84,75,5.06,broken clouds
Lubumbashi,CD,-11.6609,27.4794,60.78,37,3,4.0,clear sky
Hamilton,US,39.1834,-84.5333,51.89,67,3,6.35,clear sky
Piacabucu,BR,-10.4056,-36.4344,76.01,86,0,10.0,clear sky
Ostrovnoy,RU,68.0531,39.5131,40.95,91,100,19.86,overcast clouds
Ayagoz,KZ,47.9714,80.4392,42.91,45,1,3.74,clear sky
Constitucion,CL,-35.3333,-72.4167,51.71,90,70,6.91,broken clouds
Valparaiso,CL,-33.0393,-71.6273,56.84,82,20,5.75,few clouds
Barra Dos Coqueiros,BR,-10.9089,-37.0386,77.02,88,20,6.91,few clouds
Sangmelima,CM,2.9333,11.9833,64.78,100,100,2.46,overcast clouds
Altamirano,MX,16.8833,-92.15,56.84,99,94,1.25,overcast clouds
Diglur,IN,18.55,77.6,70.99,94,72,5.26,broken clouds
Dunmore Town,BS,25.5,-76.65,81.86,76,8,17.78,clear sky
Tura,IN,25.5198,90.2201,74.26,91,86,1.88,overcast clouds
Altay,CN,47.8667,88.1167,42.44,34,11,5.28,few clouds
Biltine,TD,14.5333,20.9167,82.74,26,26,5.64,scattered clouds
Kizhinga,RU,51.8462,109.9097,30.18,78,55,3.53,broken clouds
Christchurch,NZ,-43.5333,172.6333,61.32,64,0,17.27,clear sky
Altea,ES,38.5989,-0.0514,70.3,84,83,9.71,broken clouds
Durango,MX,24.8333,-104.8333,58.23,72,8,5.23,clear sky
Conceicao Do Coite,BR,-11.5639,-39.2828,72.05,75,0,9.17,clear sky
Catamarca,AR,-28.4696,-65.7852,78.06,25,0,19.1,clear sky
Ratlam,IN,23.3167,75.0667,71.64,97,100,7.87,overcast clouds
Baghdad,IQ,33.3406,44.4009,73.31,31,0,3.44,clear sky
Tarana,IN,23.3333,76.0333,71.1,95,100,11.16,moderate rain
Polunochnoye,RU,60.8697,60.4153,39.81,94,100,4.27,overcast clouds
Kokopo,PG,-4.352,152.2633,85.41,55,19,5.7,few clouds
Mandalgarh,IN,25.2,75.1,72.3,96,100,8.99,light rain
Staryy Nadym,RU,65.6118,72.6842,38.53,97,100,6.82,overcast clouds
Kazanskoye,RU,55.6448,69.235,43.93,92,31,7.83,scattered clouds
Limoeiro Do Ajuru,BR,-1.8953,-49.3806,80.92,68,4,12.1,clear sky
Puerto Quijarro,BO,-17.7833,-57.7667,69.87,60,100,1.83,overcast clouds
Pedernales,DO,18.0384,-71.744,82.58,69,18,7.36,few clouds
Vostok,RU,46.4856,135.8833,42.13,45,3,4.61,clear sky
Bandarbeyla,SO,9.4942,50.8122,76.42,87,6,19.06,clear sky
Itapora,BR,-22.0799,-54.7874,62.87,78,0,4.61,clear sky
Ndele,CF,8.4109,20.6473,69.12,98,100,2.55,overcast clouds
Puerto Baquerizo Moreno,EC,-0.9,-89.6,67.19,88,75,13.8,broken clouds
Mayahi,NE,13.9553,7.6712,85.24,40,13,6.76,few clouds
Skotina,GR,40.0147,22.5515,58.93,50,6,4.21,clear sky
Yulara,AU,-25.2406,130.9889,67.05,30,0,17.45,clear sky
Kilindoni,TZ,-7.9139,39.6668,75.81,75,11,12.37,few clouds
Uvarovo,RU,51.9849,42.2615,44.65,91,0,4.59,clear sky
Blackwater,AU,-23.5833,148.8833,82.72,41,4,12.66,clear sky
Barra Do Garcas,BR,-15.89,-52.2567,74.43,61,58,4.47,broken clouds
Vila Velha,BR,-20.3297,-40.2925,78.75,83,0,13.8,clear sky
Hare Bay,CA,48.8499,-54.0148,45.75,88,100,8.12,overcast clouds
Belorechensk,RU,44.76,39.87,54.72,89,5,11.88,clear sky
Manado,ID,1.487,124.8455,86.77,70,40,2.3,scattered clouds
Kirgiz-Miyaki,RU,53.6324,54.7979,46.45,85,100,12.82,overcast clouds
Nioro,GM,13.35,-15.75,74.79,89,100,2.93,light rain
Lompoc,US,34.6391,-120.4579,78.94,82,75,8.05,broken clouds
Sobolevo,RU,54.4299,31.8996,42.82,93,5,7.14,clear sky
Burgersdorp,ZA,-30.9977,26.3286,51.69,59,0,3.98,clear sky
Sabang,ID,5.8933,95.3214,79.63,78,100,10.6,light rain
Bonthe,SL,7.5264,-12.505,76.57,86,100,1.3,light rain
Buinsk,RU,54.95,48.2833,46.85,85,6,12.35,clear sky
Gizo,SB,-8.103,156.8419,83.34,71,62,7.23,light rain
Cedral,MX,23.8,-100.7333,65.71,62,100,4.45,overcast clouds
Kingisepp,RU,59.3733,28.6134,49.08,75,98,12.73,overcast clouds
Lichtenburg,ZA,-26.152,26.1597,65.7,37,0,14.85,clear sky
Aksu,CN,41.1231,80.2644,54.25,36,100,2.17,overcast clouds
Debre Zeyit,ET,8.75,38.9833,58.23,65,90,3.74,overcast clouds
Khuzdar,PK,27.7384,66.6434,69.73,31,0,3.33,clear sky
Severodvinsk,RU,64.5635,39.8302,42.91,90,99,11.5,overcast clouds
Chulman,RU,56.8479,124.9104,19.33,81,92,4.5,overcast clouds
Neryungri,RU,56.6709,124.6491,20.57,77,75,6.69,broken clouds
Huanren,CN,41.2647,125.3667,50.61,49,6,5.14,clear sky
Suhbaatar,MN,50.2314,106.2078,31.24,58,47,2.95,scattered clouds
Qaqortoq,GL,60.7167,-46.0333,31.26,84,98,10.96,overcast clouds
Biak,ID,-0.9131,122.8766,81.91,71,99,4.34,overcast clouds
Atar,MR,20.5169,-13.0499,87.24,23,11,4.68,few clouds
Svetlyy,RU,54.675,20.1347,44.65,86,88,10.36,overcast clouds
Carauari,BR,-4.8828,-66.8958,80.26,55,100,2.24,overcast clouds
Weyburn,CA,49.6668,-103.8511,52.72,41,10,6.6,clear sky
Sistranda,NO,63.7256,8.834,44.56,73,100,33.6,overcast clouds
Jiexiu,CN,37.0244,111.9125,58.71,50,31,7.9,scattered clouds
Shitanjing,CN,39.2342,106.3439,46.45,23,26,15.35,scattered clouds
Meihekou,CN,42.5272,125.6753,50.9,48,35,8.84,scattered clouds
Cabo San Lucas,MX,22.8909,-109.9124,80.58,67,0,4.05,clear sky
Cabatuan,PH,10.8794,122.486,84.06,76,67,8.93,light rain
Maceio,BR,-9.6658,-35.7353,72.84,100,20,2.3,few clouds
Igarka,RU,67.4667,86.5833,32.76,99,100,17.16,snow
Zastron,ZA,-30.3023,27.084,52.27,51,0,3.44,clear sky
Namibe,AO,-15.1961,12.1522,65.95,91,28,7.25,scattered clouds
Douentza,ML,14.9951,-2.9517,87.35,43,35,3.0,scattered clouds
Nurota,UZ,40.5614,65.6886,55.38,20,23,5.1,few clouds
Ahipara,NZ,-35.1667,173.1667,61.0,56,100,11.05,overcast clouds
Laizhou,CN,37.1717,119.9214,59.56,62,0,11.3,clear sky
Divnomorskoye,RU,44.5011,38.1353,59.72,80,4,10.18,clear sky
Jand,PK,33.4299,72.0193,75.49,46,0,5.28,clear sky
San Ramon De La Nueva Oran,AR,-23.1322,-64.326,72.43,40,0,3.06,clear sky
Cassilandia,BR,-19.1133,-51.7342,67.03,64,100,2.1,overcast clouds
Deniliquin,AU,-35.5333,144.9667,59.16,48,34,11.41,scattered clouds
Ludvika,SE,60.1496,15.1878,51.6,86,97,12.86,overcast clouds
Isangel,VU,-19.55,169.2667,79.83,74,15,17.11,few clouds
Margate,GB,51.3813,1.3862,53.31,89,1,3.0,clear sky
Gillette,US,44.2911,-105.5022,52.95,62,0,5.75,clear sky
Ust-Tsilma,RU,65.441,52.1498,44.17,83,100,9.86,overcast clouds
Lata,PT,40.1629,-8.3327,60.08,69,2,2.37,clear sky
Qasigiannguit,GL,68.8193,-51.1922,25.05,93,100,1.92,overcast clouds
Ormara,PK,25.2088,64.6357,83.48,39,0,7.45,clear sky
Gushikawa,JP,26.3544,127.8686,81.63,69,40,13.8,scattered clouds
Hammerfest,NO,70.6634,23.6821,43.25,75,40,2.3,scattered clouds
Narsaq,GL,60.9167,-46.05,32.22,82,72,5.53,broken clouds
Strezhevoy,RU,60.7333,77.5889,44.73,85,100,8.14,light rain
Villa Sandino,NI,12.0483,-84.9936,71.51,95,100,4.92,overcast clouds
Bongandanga,CD,1.5,21.05,69.33,98,100,1.05,overcast clouds
Siteki,SZ,-26.45,31.95,58.6,80,81,5.21,broken clouds
Grindavik,IS,63.8424,-22.4338,41.47,87,100,9.22,light intensity drizzle
Alcains,PT,39.9164,-7.4566,63.91,54,11,3.11,few clouds
Boda,CF,4.3189,17.4695,68.38,98,100,1.54,overcast clouds
Lagoa,PT,39.05,-27.9833,69.73,90,94,5.79,overcast clouds
Paamiut,GL,61.994,-49.6678,33.58,90,100,7.23,overcast clouds
Betioky,MG,-23.7167,44.3833,70.41,75,0,2.33,clear sky
Makakilo City,US,21.3469,-158.0858,84.56,67,100,2.71,overcast clouds
Olafsvik,IS,64.8945,-23.7142,42.69,74,100,14.92,overcast clouds
Batemans Bay,AU,-35.7167,150.1833,63.1,92,100,9.19,overcast clouds
Manokwari,ID,-0.8667,134.0833,83.57,70,60,4.94,broken clouds
Lorut,AM,40.9372,44.7714,50.36,92,98,2.71,overcast clouds
Fare,PF,-16.7,-151.0167,77.52,78,13,19.62,light rain
Riviere-Au-Renard,CA,48.9957,-64.3971,52.09,98,100,10.94,overcast clouds
Oktyabrskoye,RU,43.0645,44.7417,55.54,82,4,8.95,clear sky
Chadan,RU,51.2833,91.5833,30.4,60,68,3.44,broken clouds
Vanimo,PG,-2.6741,141.3028,85.84,66,100,7.05,overcast clouds
Hami,CN,42.8,93.45,49.98,20,0,19.37,clear sky
Okha,RU,53.5739,142.9478,41.85,56,92,15.64,light rain
Gaimersheim,DE,48.807,11.368,51.15,90,75,0.0,fog
Misratah,LY,32.3754,15.0925,72.54,66,20,3.85,few clouds
Vestmannaeyjar,IS,63.4427,-20.2734,45.12,72,80,10.2,broken clouds
Katangli,RU,51.7102,143.2326,42.33,51,7,6.08,clear sky
Tual,ID,-5.6667,132.75,82.56,77,65,11.63,broken clouds
Taltal,CL,-25.4,-70.4833,59.5,78,24,3.85,few clouds
Hirara,JP,24.8,125.2833,79.74,75,56,25.68,broken clouds
Bakel,SN,14.905,-12.4568,82.45,57,100,4.14,light rain
Nouadhibou,MR,20.931,-17.0347,70.0,86,3,20.67,clear sky
Bonnyville,CA,54.2668,-110.735,56.17,50,59,3.42,broken clouds
Odweyne,SO,9.4092,45.064,73.83,60,7,6.33,clear sky
Knysna,ZA,-34.0363,23.0471,58.21,73,62,4.9,broken clouds
Gazanjyk,TM,39.2446,55.5154,60.4,65,0,2.3,clear sky
Invermere,CA,50.5167,-116.0354,62.37,47,100,0.87,overcast clouds
Port Moresby,PG,-9.4431,147.1797,85.17,68,88,6.51,overcast clouds
Santa Fe,AR,-31.6333,-60.7,73.02,54,0,4.0,clear sky
Mukhen,RU,48.1,136.1,45.99,47,17,6.73,few clouds
Hobyo,SO,5.3505,48.5268,77.23,83,89,22.53,overcast clouds
Port Keats,AU,-14.25,129.55,91.15,52,19,3.56,few clouds
Dawei,MM,14.0833,98.2,77.25,84,100,2.91,overcast clouds
Xinzhou,CN,38.4092,112.7333,55.18,58,66,3.6,broken clouds
Srednyaya Yelyuzan,RU,53.0241,45.9529,46.45,72,33,7.16,scattered clouds
Manggar,ID,-2.8833,108.2667,74.95,93,100,4.03,moderate rain
Ewa Beach,US,21.3156,-158.0072,85.98,65,75,6.91,broken clouds
Pavino,RU,59.1139,46.1414,46.83,76,100,10.18,overcast clouds
Canberra,AU,-35.2835,149.1281,67.44,73,75,5.75,broken clouds
Kudahuvadhoo,MV,2.6708,72.8944,82.27,70,100,16.49,overcast clouds
Morro Bay,US,35.3658,-120.8499,72.21,1,8,4.0,clear sky
Kirakira,SB,-10.4544,161.9205,84.99,64,59,7.83,broken clouds
Carutapera,BR,-1.195,-46.02,78.93,80,0,9.33,clear sky
Fairbanks,US,64.8378,-147.7164,44.6,83,100,3.53,overcast clouds
Sorland,NO,67.667,12.6934,46.26,86,100,10.18,overcast clouds
Kaeo,NZ,-35.1,173.7833,59.25,58,99,10.51,overcast clouds
Portland,US,45.5234,-122.6762,82.0,57,0,1.99,clear sky
Les Cayes,HT,18.2,-73.75,78.93,78,38,3.51,scattered clouds
Bratsk,RU,56.1325,101.6142,30.69,83,69,5.48,broken clouds
Cockburn Town,TC,21.4612,-71.1419,82.92,75,7,20.62,clear sky
Bazarnyye Mataki,RU,54.8833,49.9333,46.06,88,7,12.97,clear sky
Loknya,RU,56.83,30.1467,45.01,86,90,8.3,overcast clouds
Vallenar,CL,-28.5708,-70.7581,67.21,38,3,2.26,clear sky
Dehloran,IR,32.6941,47.2679,85.98,11,0,6.33,clear sky
Monrovia,LR,6.3005,-10.7969,76.8,86,100,6.22,light rain
Montepuez,MZ,-13.1256,38.9997,64.69,96,65,3.2,broken clouds
Ugoofaaru,MV,5.6667,73.0,81.57,70,64,15.37,broken clouds
Pokhara,NP,28.2333,83.9833,68.18,80,100,3.2,overcast clouds
Rio Gallegos,AR,-51.6226,-69.2181,41.05,45,0,10.36,clear sky
Kofele,ET,7.0667,38.7833,47.89,91,66,5.23,broken clouds
Airai,TL,-8.9266,125.4092,73.9,53,7,4.47,clear sky
Port Lincoln,AU,-34.7333,135.8667,58.01,47,9,10.27,clear sky
Montes Claros,BR,-16.735,-43.8617,75.04,62,86,4.52,overcast clouds
Arya,PK,33.6,73.0667,67.23,74,0,5.5,clear sky
Vangaindrano,MG,-23.35,47.6,63.9,93,2,6.24,clear sky
Buraydah,SA,26.326,43.975,75.04,13,0,1.92,clear sky
Praia Da Vitoria,PT,38.7333,-27.0667,69.76,96,54,3.67,broken clouds
Jubbal,IN,31.1167,77.6667,52.23,91,100,1.83,overcast clouds
Coquimbo,CL,-29.9533,-71.3436,55.13,94,0,2.3,clear sky
Skelleftea,SE,64.7507,20.9528,46.99,100,75,6.91,broken clouds
Doka,SD,13.5167,35.7667,71.46,74,15,4.27,few clouds
Kita,ML,13.0349,-9.4895,72.84,81,51,2.71,broken clouds
Ulaangom,MN,49.9811,92.0667,32.43,48,13,2.82,few clouds
The Valley,AI,18.217,-63.0578,83.1,74,13,17.2,few clouds
Rancho Palos Verdes,US,33.7445,-118.387,78.53,85,40,13.8,haze
Olinda,BR,-8.0089,-34.8553,78.53,73,40,9.22,scattered clouds
Zhezkazgan,KZ,47.8043,67.7144,51.3,29,97,7.81,overcast clouds
Lasa,IT,46.6166,10.7002,47.35,80,23,2.21,few clouds
Oloron-Sainte-Marie,FR,43.1944,-0.6107,62.53,98,100,2.13,overcast clouds
San Juan,AR,-31.5375,-68.5364,81.05,9,22,35.01,few clouds
Tabou,CI,4.423,-7.3528,75.85,92,50,7.74,light rain
Cacule,BR,-14.5033,-42.2222,81.16,43,100,3.85,overcast clouds
Rypin,PL,53.066,19.4094,54.14,82,100,7.09,overcast clouds
Padang,ID,-0.9492,100.3543,75.25,76,100,3.44,light rain
Ekhabi,RU,53.5102,142.9671,41.88,56,92,15.23,light rain
Lorengau,PG,-2.0226,147.2712,85.35,65,18,10.51,few clouds
Namatanai,PG,-3.6667,152.4333,85.48,63,14,7.27,few clouds
Koster,ZA,-25.863,26.8976,63.37,42,0,13.51,clear sky
Mbekenyera,TZ,-10.0,38.9833,71.69,76,100,3.27,overcast clouds
Acarau,BR,-2.8856,-40.12,78.08,83,0,12.59,clear sky
Fukuma,JP,33.7667,130.4667,70.29,60,100,17.31,overcast clouds
Arlit,NE,18.7369,7.3853,85.26,21,7,11.59,clear sky
Muros,ES,42.7762,-9.0603,65.08,85,100,12.91,overcast clouds
Atambua,ID,-9.1061,124.8925,85.57,54,7,2.46,clear sky
Belgrade,RS,44.804,20.4651,58.69,89,0,5.75,clear sky
La Palma,US,33.8464,-118.0467,83.93,74,0,12.66,clear sky
Keti Bandar,PK,24.1447,67.4497,81.34,75,31,14.05,scattered clouds
Ofunato,JP,39.0717,141.7167,58.3,80,96,4.97,overcast clouds
Hokitika,NZ,-42.7167,170.9667,53.64,64,100,7.78,overcast clouds
Pouebo,NC,-20.4,164.5667,80.78,65,25,15.39,scattered clouds
Montevideo,UY,-34.8335,-56.1674,69.51,32,0,8.05,clear sky
San Ramon,US,37.7799,-121.978,89.82,52,0,8.05,clear sky
Taoudenni,ML,22.6783,-3.9836,93.09,20,87,13.38,overcast clouds
Arkhangelsk,RU,64.5401,40.5433,42.91,100,40,4.47,scattered clouds
Piranshahr,IR,36.701,45.1413,58.37,55,2,5.06,clear sky
Vestmanna,FO,62.1564,-7.1664,40.12,75,100,12.66,overcast clouds
Katherine,AU,-14.4667,132.2667,88.12,58,80,4.61,broken clouds
Hoquiam,US,46.9809,-123.8893,63.43,91,0,6.91,clear sky
Fougamou,GA,-1.2154,10.5838,71.19,99,91,1.01,overcast clouds
Port Blair,IN,11.6667,92.75,80.6,80,100,11.48,overcast clouds
Nanakuli,US,21.3906,-158.1547,84.42,65,75,6.91,broken clouds
Cairns,AU,-16.9167,145.7667,91.06,69,100,9.22,overcast clouds
Fairhope,US,30.523,-87.9033,74.95,69,0,3.0,clear sky
Zyryanka,RU,65.75,150.85,18.36,82,47,12.12,scattered clouds
Tazovskiy,RU,67.4667,78.7,35.37,99,100,7.0,light rain
Porto Novo,BJ,6.4965,2.6036,75.29,93,97,2.91,moderate rain
Hay River,CA,60.8156,-115.7999,52.86,58,100,5.08,overcast clouds
Filingue,NE,14.3521,3.3168,85.57,48,66,7.49,broken clouds
Grand-Lahou,CI,5.1367,-5.0242,75.45,93,81,6.87,light rain
Constantine,DZ,36.365,6.6147,62.01,88,75,4.61,broken clouds
Znamenskoye,RU,57.1281,73.8282,46.58,71,100,1.3,light rain
Nuuk,GL,64.1835,-51.7216,32.61,80,75,1.14,broken clouds
Cananeia,BR,-25.0147,-47.9267,67.06,80,26,4.23,scattered clouds
Skibbereen,IE,51.55,-9.2667,50.11,78,10,8.25,clear sky
Rio Grande,BR,-32.035,-52.0986,57.24,77,0,2.42,clear sky
General Roca,AR,-39.0333,-67.5833,55.62,28,8,31.94,clear sky
Feijo,BR,-8.1642,-70.3536,73.36,92,100,1.3,overcast clouds
Brisbane,AU,-27.4679,153.0281,78.12,63,75,13.8,broken clouds
Axim,GH,4.8699,-2.2405,75.51,88,71,5.93,broken clouds
Gavle,SE,60.6745,17.1417,53.92,88,100,7.0,overcast clouds
Douglas,US,41.3,-96.167,49.39,59,0,0.0,clear sky
Sumbe,AO,-11.2061,13.8437,72.95,88,99,2.93,overcast clouds
General Pico,AR,-35.6566,-63.7568,62.38,64,100,4.7,overcast clouds
Galveston,US,29.3669,-94.9669,82.99,69,40,3.44,scattered clouds
Iralaya,HN,15.0,-83.2333,80.31,87,100,11.16,overcast clouds
Shubarkuduk,KZ,49.1447,56.4872,45.68,65,49,7.67,scattered clouds
Maniwaki,CA,46.3834,-75.966,38.61,71,99,8.57,overcast clouds
Mizdah,LY,31.4451,12.9801,60.91,90,0,6.24,clear sky
Ongandjera,NA,-17.8833,15.0667,70.54,17,10,2.48,clear sky
Manta,EC,-0.95,-80.7333,71.38,83,75,16.11,broken clouds
Nemuro,JP,43.3236,145.575,51.64,71,71,20.33,broken clouds
Jacqueville,CI,5.2052,-4.4146,76.89,90,77,7.76,light rain
Hovd,MN,48.0056,91.6419,29.41,54,48,0.94,scattered clouds
El Sauzal,MX,31.9,-116.6833,69.78,76,50,3.11,scattered clouds
Ashti,IN,19.3833,76.2333,71.4,91,25,6.08,scattered clouds
Krasnaya Gora,RU,52.9995,31.6023,43.86,91,0,6.53,clear sky
Cabedelo,BR,-6.9811,-34.8339,77.67,85,0,9.62,clear sky
Tamandare,BR,-8.7597,-35.1047,75.47,86,0,5.28,clear sky
Murgab,TM,37.4966,61.9714,53.42,34,0,2.46,clear sky
Quelimane,MZ,-17.8786,36.8883,72.19,96,18,3.22,few clouds
Sosnogorsk,RU,63.6023,53.8817,43.29,87,100,8.43,overcast clouds
Otradnoye,RU,59.7775,30.8181,51.85,78,60,11.92,broken clouds
Taguatinga,BR,-12.3857,-46.5711,81.3,47,8,0.72,clear sky
Abyek,IR,36.0667,50.55,54.57,71,0,2.19,clear sky
Aasiaat,GL,68.7098,-52.8699,25.93,86,100,5.64,overcast clouds
Challans,FR,46.8436,-1.8749,51.96,89,9,8.19,clear sky
Warora,IN,20.2333,79.0,73.18,97,70,8.05,broken clouds
Mokobeng,BW,-22.9965,27.6678,72.19,42,0,15.79,clear sky
Half Moon Bay,US,37.4636,-122.4286,81.03,77,100,17.27,mist
Saint Joseph,US,39.7686,-94.8466,49.55,58,0,6.85,clear sky
Soloneshnoye,RU,51.6544,84.3197,41.86,65,83,5.14,broken clouds
Nizwa,OM,22.9333,57.5333,73.94,46,0,2.66,clear sky
Saldanha,ZA,-33.0117,17.9442,58.53,82,100,10.65,overcast clouds
Lulea,SE,65.5842,22.1547,48.27,93,100,5.75,overcast clouds
Lyuban,BY,52.7985,28.0048,44.08,87,4,7.47,clear sky
Enid,US,36.3956,-97.8784,62.98,26,0,12.66,clear sky
Pascagoula,US,30.3658,-88.5561,74.12,86,0,0.0,clear sky
Lerwick,GB,60.1545,-1.1494,48.2,71,100,16.67,overcast clouds
Kamina,CD,-8.7386,24.9906,64.76,79,0,4.7,clear sky
La Rioja,ES,42.25,-2.5,47.98,96,78,2.57,broken clouds
Calama,CL,-22.4667,-68.9333,55.89,8,0,5.75,clear sky
Tsiroanomandidy,MG,-18.7667,46.0333,61.12,55,0,2.68,clear sky
Maningrida,AU,-12.0667,134.2667,88.68,55,96,8.08,overcast clouds
Xuddur,SO,4.1213,43.8894,70.11,83,99,12.71,overcast clouds
Natal,BR,-5.795,-35.2094,77.65,88,40,3.44,scattered clouds
Inirida,CO,3.8653,-67.9239,76.32,88,46,3.87,scattered clouds
Perchtoldsdorf,AT,48.119,16.2574,56.21,89,46,0.36,scattered clouds
Sarangani,PH,5.4033,125.4636,83.39,74,100,8.52,overcast clouds
Labuhan,ID,-6.8844,112.2051,81.34,78,100,8.41,overcast clouds
Tete,MZ,-16.1564,33.5867,80.69,54,0,9.22,clear sky
Guadix,ES,37.2993,-3.1392,59.31,60,99,3.06,overcast clouds
Miranda,CO,3.2499,-76.2281,66.88,98,100,1.86,overcast clouds
Cabinda,AO,-5.55,12.2,75.76,85,60,6.4,broken clouds
Luganville,VU,-15.5333,167.1667,83.73,69,25,9.64,scattered clouds
San Cayetano,CO,7.8771,-72.6243,81.48,65,75,4.61,thunderstorm
Koszalin,PL,54.1944,16.1722,50.68,67,100,9.64,overcast clouds
Grand Gaube,MU,-20.0064,57.6608,68.38,71,88,3.0,overcast clouds
Takoradi,GH,4.8845,-1.7554,75.29,89,77,5.93,broken clouds
Masuda,JP,34.6667,131.85,63.93,72,100,13.6,overcast clouds
Whitehorse,CA,60.7161,-135.0538,59.81,45,100,5.01,overcast clouds
Tigil,RU,57.8,158.6667,34.05,91,57,13.85,broken clouds
Halmstad,SE,56.6745,12.8568,56.01,93,40,11.5,moderate rain
Ushtobe,KZ,45.2514,77.9838,50.95,36,0,5.7,clear sky
Vondrozo,MG,-22.8167,47.2833,56.84,97,10,1.86,clear sky
Trairi,BR,-3.2778,-39.2689,77.41,81,0,7.72,clear sky
Kautokeino,NO,69.0125,23.0412,35.08,96,43,13.6,scattered clouds
Nador,MA,35.174,-2.9287,71.85,83,75,3.44,broken clouds
Maple Grove,US,45.0725,-93.4558,44.6,69,0,3.44,clear sky
Maridi,SS,4.9158,29.4742,66.18,99,100,4.16,moderate rain
Cartagena,CO,10.3997,-75.5144,80.22,83,75,4.61,broken clouds
Ahuimanu,US,21.4447,-157.8378,84.16,70,75,5.75,broken clouds
Karratha,AU,-20.7377,116.8463,83.53,31,43,26.64,scattered clouds
Tiarei,PF,-17.5333,-149.3333,82.42,82,33,21.94,light rain
Agua Verde,MX,22.9,-106.05,80.69,76,6,5.48,clear sky
Morgan City,US,29.6994,-91.2068,75.99,78,0,5.75,clear sky
Labuan,MY,5.2767,115.2417,81.21,81,24,11.68,few clouds
Tara,RU,56.8944,74.371,47.64,59,100,3.51,overcast clouds
Farafenni,GM,13.5667,-15.6,75.9,90,100,1.74,moderate rain
Petropavlovsk-Kamchatskiy,RU,53.0452,158.6483,46.99,46,40,6.71,scattered clouds
Igrim,RU,63.1906,64.4162,41.36,94,100,5.97,overcast clouds
Santa Maria,BR,-29.6842,-53.8069,56.75,80,0,5.14,clear sky
Gat,IL,31.61,34.7642,70.39,100,0,2.73,clear sky
Svobodnyy,RU,51.4,128.1333,37.0,42,100,9.73,overcast clouds
Biograd Na Moru,HR,43.9433,15.4519,54.3,69,100,1.79,overcast clouds
Pampierstad,ZA,-27.7832,24.6877,57.65,19,0,3.38,clear sky
Dayong,CN,25.0209,118.2898,76.95,73,99,4.63,overcast clouds
Mount Isa,AU,-20.7333,139.5,85.77,48,100,10.36,overcast clouds
Belaya Gora,RU,68.5333,146.4167,25.34,49,100,16.31,overcast clouds
Longonjo,AO,-12.9067,15.2533,61.97,92,7,1.57,clear sky
Axams,AT,47.2081,11.2869,46.29,92,92,2.3,overcast clouds
